{"total":53,"pages":6,"rows":[{"id":"2079","name":"成华区妇幼保健院","city":"成都","province":"四川","area":"西南","level":"一甲","score":1,"profiles":"-","address":"四川省成都市成华大道新鸿路6号","doc_num":34,"dept_num":4,"lng":"104.10321","lat":"30.66774"},{"id":"2107","name":"华西牙种植医院","city":"成都","province":"四川","area":"西南","level":"一甲","score":1,"profiles":"-","address":"四川省成都市小天竺街75号","doc_num":7,"dept_num":1,"lng":"104.07155","lat":"30.650194"},{"id":"1549","name":"成都第三人民医院","city":"成都","province":"四川","area":"西南","level":"三甲","score":2,"profiles":"-","address":"成都市青龙街82号","doc_num":291,"dept_num":40,"lng":"104.069756","lat":"30.676064"},{"id":"1567","name":"成都市妇女儿童中心医院","city":"成都","province":"四川","area":"西南","level":"三甲","score":2,"profiles":"-","address":"成都市西三环外日月大道1617号","doc_num":290,"dept_num":37,"lng":"103.967094","lat":"30.684011"},{"id":"1606","name":"成都医学院附属医院","city":"成都","province":"四川","area":"西南","level":"三甲","score":2,"profiles":"-","address":"四川省成都市新都区宝光大道278号","doc_num":253,"dept_num":35,"lng":"104.16455","lat":"30.831232"},{"id":"1647","name":"成都市第一人民医院","city":"成都","province":"四川","area":"西南","level":"三甲","score":2,"profiles":"-","address":"成都市高新南区繁雄大道万象北路18号","doc_num":239,"dept_num":35,"lng":"104.05748","lat":"30.603327"},{"id":"1664","name":"华西妇产儿童医院","city":"成都","province":"四川","area":"西南","level":"三甲","score":2,"profiles":"-","address":"成都市人民南路3段20号","doc_num":233,"dept_num":20,"lng":"104.07225","lat":"30.645245"},{"id":"1683","name":"华西口腔医院","city":"成都","province":"四川","area":"西南","level":"三甲","score":2,"profiles":"-","address":"四川省成都市人民南路三段14号","doc_num":220,"dept_num":13,"lng":"104.07248","lat":"30.649343"},{"id":"1712","name":"成都市第二人民医院","city":"成都","province":"四川","area":"西南","level":"三甲","score":2,"profiles":"-","address":"成都市庆云南街10号","doc_num":208,"dept_num":34,"lng":"104.09296","lat":"30.666277"},{"id":"1728","name":"四川省肿瘤医院","city":"成都","province":"四川","area":"西南","level":"三甲","score":2,"profiles":"-","address":"成都市人民南路四段55号","doc_num":198,"dept_num":28,"lng":"104.07727","lat":"30.61485"}]}