{"total":2806,"rows":[
    {"id":"1","name":"复旦大学附属中山医院","city":"上海","province":"上海","area":"华东","level":"三甲","score":2,"profiles":"-","address":" 中国上海市徐汇区枫林路180号","lng":"91.13316","lat":"29.663637","dept_num":26,"doc_num":76},
    {"id":"2","name":"上海交通大学医学院附属新华医院","city":"上海","province":"上海","area":"华东","level":"三甲","score":2,"profiles":"-","address":"中国上海市杨浦区控江路1665号","lng":"101.81112","lat":"36.62518","dept_num":40,"doc_num":180},
    {"id":"3","name":"上海交通大学医学院附属瑞金医院","city":"上海","province":"上海","area":"华东","level":"三甲","score":2,"profiles":"-","address":"中国上海市黄浦区瑞金二路197号","lng":"101.76914","lat":"36.628517","dept_num":26,"doc_num":126},
    {"id":"4","name":"复旦大学附属肿瘤医院","city":"上海","province":"上海","area":"华东","level":"三甲","score":2,"profiles":"-","address":" 中国上海市徐汇区零陵路399号","lng":"101.78933","lat":"36.620358","dept_num":29,"doc_num":69},
    {"id":"5","name":"上海市第六人民医院","city":"上海","province":"上海","area":"华东","level":"三甲","score":2,"profiles":"-","address":"中国上海市徐汇区田林宜山路600号","lng":"101.79245","lat":"36.606735","dept_num":10,"doc_num":51},
{
    "id": "5",
    "name": "上海市第一人民医院",
    "city": "上海",
    "province": "上海",
    "area": "华东",
    "level": "三甲",
    "score": 2,
    "profiles": "-",
    "address": "中国上海市松江区新松江路650号",
    "lng": "91.13316",
    "lat": "29.663637",
    "dept_num": 26,
    "doc_num": 76
},
{
    "id": "6",
    "name": "上海交通大学医学院附属仁济医院",
    "city": "上海",
    "province": "上海",
    "area": "华东",
    "level": "三甲",
    "score": 2,
    "profiles": "-",
    "address": "中国上海市黄浦区山东中路145号",
    "lng": "101.81112",
    "lat": "36.62518",
    "dept_num": 40,
    "doc_num": 180
},
{
    "id": "7",
    "name": "复旦大学附属华山医院",
    "city": "上海",
    "province": "上海",
    "area": "华东",
    "level": "三甲",
    "score": 2,
    "profiles": "-",
    "address": "中国上海市静安区乌鲁木齐中路12号",
    "lng": "101.76914",
    "lat": "36.628517",
    "dept_num": 26,
    "doc_num": 126
}]}
