{"hospitalList":[{"id":"2095","name":"成都中山医院","city":"成都","province":"四川","area":"西南","level":"二级","score":1,"profiles":"-","address":"成都文庙前街42号（老南门大桥桥头）","lng":"104.06755","lat":"30.653574","dept_num":12,"doc_num":23},{"id":"2099","name":"成都市仁济医院","city":"成都","province":"四川","area":"西南","level":"二甲","score":1,"profiles":"-","address":"成都市东城根下街24号","lng":"104.066986","lat":"30.676163","dept_num":3,"doc_num":23},{"id":"2101","name":"四川电力医院","city":"成都","province":"四川","area":"西南","level":"二级","score":1,"profiles":"-","address":"成都市成华区跳蹬河崔家店北一路7号","lng":"104.13905","lat":"30.669537","dept_num":7,"doc_num":14},{"id":"2103","name":"成都市第八人民医院","city":"成都","province":"四川","area":"西南","level":"三级","score":1,"profiles":"-","address":"成都市火车北站二环路北二段82号","lng":"104.074455","lat":"30.700441","dept_num":5,"doc_num":11},{"id":"2104","name":"武侯区人民医院","city":"成都","province":"四川","area":"西南","level":"二级","score":1,"profiles":"-","address":"成都市广福桥街16号肖家河小区","lng":"104.04546","lat":"30.640158","dept_num":4,"doc_num":8},{"id":"2107","name":"华西牙种植医院","city":"成都","province":"四川","area":"西南","level":"一甲","score":1,"profiles":"-","address":"四川省成都市小天竺街75号","lng":"104.07155","lat":"30.650194","dept_num":1,"doc_num":7},{"id":"2110","name":"绵阳市中心医院","city":"绵阳","province":"四川","area":"西南","level":"三甲","score":2,"profiles":"-","address":"绵阳市涪城区警钟街常家巷12号","lng":"104.759514","lat":"31.463634","dept_num":49,"doc_num":300},{"id":"2133","name":"绵阳市第三人民医院","city":"绵阳","province":"四川","area":"西南","level":"三甲","score":2,"profiles":"-","address":"四川省绵阳市剑南路东段190号","lng":"104.767075","lat":"31.47534","dept_num":42,"doc_num":215},{"id":"2157","name":"绵阳市中医院","city":"绵阳","province":"四川","area":"西南","level":"三甲","score":2,"profiles":"-","address":"绵阳市涪城路14号","lng":"104.7569","lat":"31.4712","dept_num":29,"doc_num":146},{"id":"2166","name":"绵阳四0四医院","city":"绵阳","province":"四川","area":"西南","level":"三甲","score":2,"profiles":"-","address":"四川省绵阳市跃进路56号","lng":"104.747795","lat":"31.483671","dept_num":32,"doc_num":127},{"id":"2172","name":"绵阳市人民医院","city":"绵阳","province":"四川","area":"西南","level":"二甲","score":1,"profiles":"-","address":"绵阳市剑南路西段10-12号","lng":"104.75379","lat":"31.473503","dept_num":29,"doc_num":117},{"id":"2181","name":"江油人民医院","city":"绵阳","province":"四川","area":"西南","level":"三级","score":1,"profiles":"-","address":"四川省江油市中坝镇纪念碑路中段346号","lng":"104.75401","lat":"31.785353","dept_num":10,"doc_num":63},{"id":"2187","name":"绵阳市第二人民医院","city":"绵阳","province":"四川","area":"西南","level":"二甲","score":1,"profiles":"-","address":"绵阳市长虹大道中段107号","lng":"104.74442","lat":"31.472202","dept_num":20,"doc_num":53},{"id":"2195","name":"绵阳市骨科医院","city":"绵阳","province":"四川","area":"西南","level":"二甲","score":1,"profiles":"-","address":"绵阳市剑门路东段17号","lng":"104.74144","lat":"31.471216","dept_num":11,"doc_num":48},{"id":"2200","name":"解放军520医院","city":"绵阳","province":"四川","area":"西南","level":"二甲","score":1,"profiles":"-","address":"绵阳市剑门路西段278号","lng":"104.713684","lat":"31.46624","dept_num":21,"doc_num":36},{"id":"2203","name":"绵阳市口腔医院","city":"绵阳","province":"四川","area":"西南","level":"二甲","score":1,"profiles":"-","address":"绵阳市剑南路西段11号","lng":"104.75501","lat":"31.473425","dept_num":9,"doc_num":30},{"id":"2204","name":"绵阳市第八医院","city":"绵阳","province":"四川","area":"西南","level":"三级","score":0,"profiles":"-","address":"绵阳市临园路中段193号","lng":"104.737724","lat":"31.466955","dept_num":5,"doc_num":29},{"id":"2206","name":"绵阳市妇幼保健院","city":"绵阳","province":"四川","area":"西南","level":"二甲","score":1,"profiles":"-","address":"绵阳市花园北街8号","lng":"104.72419","lat":"31.461674","dept_num":3,"doc_num":9},{"id":"2207","name":"广元市中心医院","city":"广元","province":"四川","area":"西南","level":"三甲","score":2,"profiles":"-","address":"广元市利州区井巷子16号","lng":"105.8289","lat":"32.44108","dept_num":30,"doc_num":93},{"id":"2214","name":"广元市第一人民医院","city":"广元","province":"四川","area":"西南","level":"三甲","score":2,"profiles":"-","address":"四川省广元市东坝苴国路中段","lng":"105.85383","lat":"32.435585","dept_num":33,"doc_num":77},{"id":"2217","name":"广元市中医院","city":"广元","province":"四川","area":"西南","level":"三甲","score":2,"profiles":"-","address":"广元市建设路133号","lng":"105.836815","lat":"32.449326","dept_num":22,"doc_num":71},{"id":"2224","name":"广元市第三人民医院","city":"广元","province":"四川","area":"西南","level":"二甲","score":1,"profiles":"-","address":"广元市利州西路三段50号","lng":"105.80628","lat":"32.426025","dept_num":24,"doc_num":44},{"id":"2229","name":"广元市第二人民医院","city":"广元","province":"四川","area":"西南","level":"二甲","score":1,"profiles":"-","address":"广元市利州东路108号","lng":"105.83342","lat":"32.43906","dept_num":10,"doc_num":28},{"id":"2231","name":"广元市第四人民医院","city":"广元","province":"四川","area":"西南","level":"三甲","score":2,"profiles":"-","address":"广元市利州西路三段116号","lng":"105.800156","lat":"32.4272","dept_num":9,"doc_num":24},{"id":"2232","name":"自贡市第一人民医院","city":"自贡","province":"四川","area":"西南","level":"三甲","score":2,"profiles":"-","address":"自贡市尚义灏一支路42号","lng":"104.7883","lat":"29.341822","dept_num":37,"doc_num":146},{"id":"2241","name":"自贡市第四人民医院","city":"自贡","province":"四川","area":"西南","level":"三甲","score":2,"profiles":"-","address":"四川省自贡市自流井区檀木林街2号","lng":"104.78294","lat":"29.35786","dept_num":35,"doc_num":135},{"id":"2248","name":"自贡中医院","city":"自贡","province":"四川","area":"西南","level":"三甲","score":2,"profiles":"-","address":"自贡市大安区马冲口街59号","lng":"104.78116","lat":"29.382853","dept_num":21,"doc_num":77},{"id":"2254","name":"自贡市第三人民医院","city":"自贡","province":"四川","area":"西南","level":"三级","score":1,"profiles":"-","address":"自贡市贡井区筱溪街胜利巷156号","lng":"104.72358","lat":"29.351042","dept_num":24,"doc_num":72},{"id":"2258","name":"自贡市第五人民医院","city":"自贡","province":"四川","area":"西南","level":"三甲","score":2,"profiles":"-","address":"自贡市贡井区青杠林138号","lng":"104.72942","lat":"29.346937","dept_num":10,"doc_num":41},{"id":"2263","name":"自贡市妇幼保健院","city":"自贡","province":"四川","area":"西南","level":"三甲","score":2,"profiles":"-","address":"自贡市大安区龙井街大皇桶49号","lng":"104.78274","lat":"29.372791","dept_num":3,"doc_num":25},{"id":"2264","name":"自贡市第七人民医院","city":"自贡","province":"四川","area":"西南","level":"二级","score":1,"profiles":"-","address":"自贡市五星街黄桷坪路123号","lng":"104.77657","lat":"29.36679","dept_num":14,"doc_num":23},{"id":"2269","name":"攀枝花市中心医院","city":"攀枝花","province":"四川","area":"西南","level":"三甲","score":2,"profiles":"-","address":"四川攀枝花市东区攀枝花大道中段益康街34号","lng":"101.714066","lat":"26.547052","dept_num":34,"doc_num":135},{"id":"2279","name":"攀枝花中西医结合医院","city":"攀枝花","province":"四川","area":"西南","level":"三甲","score":2,"profiles":"-","address":"四川省攀枝花市东区炳草岗桃源街27#","lng":"101.72921","lat":"26.586843","dept_num":34,"doc_num":113},{"id":"2287","name":"攀钢总医院","city":"攀枝花","province":"四川","area":"西南","level":"三甲","score":2,"profiles":"-","address":"攀枝花市东区长寿路104号","lng":"101.70454","lat":"26.567001","dept_num":31,"doc_num":85},{"id":"2289","name":"攀枝花市妇幼保健院","city":"攀枝花","province":"四川","area":"西南","level":"三甲","score":2,"profiles":"-","address":"攀枝花市新华街二村27号","lng":"101.7256","lat":"26.587849","dept_num":7,"doc_num":32},{"id":"2291","name":"攀枝花铁路医院","city":"攀枝花","province":"四川","area":"西南","level":"一甲","score":0,"profiles":"-","address":"攀枝花市仁和区金江镇彩虹路112号","lng":"101.85694","lat":"26.547909","dept_num":5,"doc_num":24},{"id":"2292","name":"攀枝花第三人民医院","city":"攀枝花","province":"四川","area":"西南","level":"三甲","score":2,"profiles":"-","address":"攀枝花市仁和镇老街三村","lng":"101.73805","lat":"26.510796","dept_num":2,"doc_num":6},{"id":"2293","name":"川北医学院附属医院","city":"南充","province":"四川","area":"西南","level":"三甲","score":2,"profiles":"-","address":"四川省南充市文化路63号","lng":"106.09264","lat":"30.798977","dept_num":40,"doc_num":352},{"id":"2323","name":"南充市中心医院","city":"南充","province":"四川","area":"西南","level":"三甲","score":2,"profiles":"-","address":"南充市人民南路97号","lng":"106.09087","lat":"30.793726","dept_num":39,"doc_num":224},{"id":"2332","name":"阆中人民医院","city":"南充","province":"四川","area":"西南","level":"三级","score":1,"profiles":"-","address":"四川省阆中市张飞南路17号","lng":"105.9858","lat":"31.58147","dept_num":33,"doc_num":137},{"id":"2339","name":"南充市中医院","city":"南充","province":"四川","area":"西南","level":"二级","score":1,"profiles":"-","address":"南充市顺庆区大南街","lng":"106.09341","lat":"30.784527","dept_num":8,"doc_num":46},{"id":"2344","name":"南充市妇孺医院","city":"南充","province":"四川","area":"西南","level":"二甲","score":1,"profiles":"-","address":"南充市顺庆区府街52号","lng":"106.09471","lat":"30.789146","dept_num":3,"doc_num":7},{"id":"2346","name":"乐山市人民医院","city":"乐山","province":"四川","area":"西南","level":"三甲","score":2,"profiles":"-","address":"乐山市市中区白塔街238号","lng":"103.7627","lat":"29.562208","dept_num":29,"doc_num":100},{"id":"2354","name":"乐山红会医院","city":"乐山","province":"四川","area":"西南","level":"二甲","score":1,"profiles":"-","address":"乐山市市中区新村街45号","lng":"103.771965","lat":"29.56776","dept_num":22,"doc_num":71},{"id":"2357","name":"乐山市中医院","city":"乐山","province":"四川","area":"西南","level":"三甲","score":2,"profiles":"-","address":"乐山市市中区柏杨中路183号","lng":"103.75611","lat":"29.591755","dept_num":13,"doc_num":39},{"id":"2361","name":"乐山市老年病医院","city":"乐山","province":"四川","area":"西南","level":"二甲","score":1,"profiles":"-","address":"乐山市市中区人民西路283号","lng":"103.76512","lat":"29.573938","dept_num":4,"doc_num":18},{"id":"2363","name":"德阳市人民医院","city":"德阳","province":"四川","area":"西南","level":"三甲","score":2,"profiles":"-","address":"德阳市泰山北路173号","lng":"104.401344","lat":"31.148466","dept_num":38,"doc_num":283},{"id":"2376","name":"绵竹市人民医院","city":"德阳","province":"四川","area":"西南","level":"三级","score":1,"profiles":"-","address":"绵竹市剑南镇庆云下街119号","lng":"104.21499","lat":"31.344587","dept_num":25,"doc_num":68},{"id":"2384","name":"什邡市中医院","city":"德阳","province":"四川","area":"西南","level":"二级","score":1,"profiles":"-","address":"什邡市西顺城大街207号","lng":"104.01987","lat":"31.293694","dept_num":17,"doc_num":49},{"id":"2386","name":"德阳市口腔医院","city":"德阳","province":"四川","area":"西南","level":"二甲","score":1,"profiles":"-","address":"四川省德阳市绵远街","lng":"104.39911","lat":"31.129515","dept_num":5,"doc_num":35},{"id":"2387","name":"德阳市第二人民医院","city":"德阳","province":"四川","area":"西南","level":"三级","score":1,"profiles":"-","address":"德阳市岷江西路一段340号","lng":"104.39853","lat":"31.125818","dept_num":24,"doc_num":34},{"id":"2391","name":"达州市中心医院","city":"达州","province":"四川","area":"西南","level":"三甲","score":2,"profiles":"-","address":"达州市通川区大东街151号(门诊部);达州市通川区南岳庙街（胡家坝）56号(住院部)","lng":"107.52497","lat":"31.228231","dept_num":32,"doc_num":274},{"id":"2408","name":"达州市第二人民医院","city":"达州","province":"四川","area":"西南","level":"三甲","score":2,"profiles":"-","address":"西外新区地址:达州市通川区西外龙泉路1号;大西街老区地址:达州市通川区大西街126号","lng":"107.476295","lat":"31.226847","dept_num":40,"doc_num":198},{"id":"2417","name":"渠县人民医院","city":"达州","province":"四川","area":"西南","level":"二甲","score":1,"profiles":"-","address":"四川省渠县渠江镇和平街88号","lng":"106.97777","lat":"30.843058","dept_num":7,"doc_num":29},{"id":"2419","name":"宜宾市第二人民医院","city":"宜宾","province":"四川","area":"西南","level":"三甲","score":2,"profiles":"-","address":"四川省宜宾市北大街96号","lng":"104.98372","lat":"28.845106","dept_num":46,"doc_num":455},{"id":"2429","name":"宜宾市第一人民医院","city":"宜宾","province":"四川","area":"西南","level":"三甲","score":2,"profiles":"-","address":"A区:宜宾市文星街65号;B区:宜宾市南岸商贸路108号","lng":"104.64534","lat":"28.76186","dept_num":34,"doc_num":288},{"id":"2434","name":"宜宾县人民医院","city":"宜宾","province":"四川","area":"西南","level":"二甲","score":1,"profiles":"-","address":"宜宾县柏溪镇育才路2号","lng":"104.54455","lat":"28.700445","dept_num":13,"doc_num":33},{"id":"2435","name":"兴文中医医院","city":"宜宾","province":"四川","area":"西南","level":"二甲","score":1,"profiles":"-","address":"兴文县县城滨河路","lng":"105.14123","lat":"28.255539","dept_num":8,"doc_num":33},{"id":"2437","name":"内江市第二人民医院","city":"内江","province":"四川","area":"西南","level":"三甲","score":2,"profiles":"-","address":"四川省内江市东兴区新江路244号","lng":"105.0803","lat":"29.601812","dept_num":28,"doc_num":94},{"id":"2442","name":"内江市第一人民医院","city":"内江","province":"四川","area":"西南","level":"三甲","score":2,"profiles":"-","address":"内江市交通路沱中巷31号","lng":"105.0735","lat":"29.584446","dept_num":30,"doc_num":88},{"id":"2444","name":"隆昌县人民医院","city":"内江","province":"四川","area":"西南","level":"二甲","score":1,"profiles":"-","address":"四川省隆昌县金鹅镇康复中路73号","lng":"105.29951","lat":"29.34098","dept_num":25,"doc_num":80},{"id":"2446","name":"内江市第六人民医院","city":"内江","province":"四川","area":"西南","level":"二甲","score":1,"profiles":"-","address":"内江市壕子口铁站街东巷48号","lng":"105.0455","lat":"29.598406","dept_num":6,"doc_num":10},{"id":"2447","name":"泸州医学院附属医院","city":"泸州","province":"四川","area":"西南","level":"三甲","score":2,"profiles":"-","address":"四川省泸州市太平街25号","lng":"105.45374","lat":"28.894112","dept_num":49,"doc_num":426},{"id":"2453","name":"泸医中医院","city":"泸州","province":"四川","area":"西南","level":"三甲","score":2,"profiles":"-","address":"龙马潭区春晖路16号","lng":"105.43179","lat":"28.90041","dept_num":30,"doc_num":133},{"id":"2455","name":"泸州市人民医院","city":"泸州","province":"四川","area":"西南","level":"二甲","score":1,"profiles":"-","address":"四川省泸州市江阳区忠孝路61号步行街口旁边","lng":"105.46113","lat":"28.891922","dept_num":29,"doc_num":120},{"id":"2459","name":"合江县人民医院","city":"泸州","province":"四川","area":"西南","level":"二甲","score":1,"profiles":"-","address":"合江县酱园坪69号","lng":"105.9316","lat":"28.751865","dept_num":8,"doc_num":24},{"id":"2460","name":"凉山州一医院","city":"凉山","province":"四川","area":"西南","level":"三甲","score":2,"profiles":"-","address":"四川省西昌市下顺城街6号","lng":"102.27236","lat":"27.899038","dept_num":27,"doc_num":122},{"id":"2461","name":"凉山州中西医结合医院","city":"凉山","province":"四川","area":"西南","level":"三级","score":1,"profiles":"-","address":"西昌市南桥侧","lng":"102.11789","lat":"27.863377","dept_num":9,"doc_num":29},{"id":"2462","name":"资阳市第二人民医院","city":"资阳","province":"四川","area":"西南","level":"三级","score":1,"profiles":"-","address":"简阳市医院路180号","lng":"104.55456","lat":"30.393991","dept_num":32,"doc_num":122},{"id":"2465","name":"资阳市第四人民医院","city":"资阳","province":"四川","area":"西南","level":"二级","score":1,"profiles":"-","address":"资阳市建设东路244号","lng":"104.662506","lat":"30.121206","dept_num":16,"doc_num":31},{"id":"2467","name":"雅安市人民医院","city":"雅安","province":"四川","area":"西南","level":"三甲","score":2,"profiles":"-","address":"四川省雅安市雨城区城后路358号","lng":"103.00252","lat":"29.987213","dept_num":35,"doc_num":192},{"id":"2469","name":"眉山市中医院","city":"眉山","province":"四川","area":"西南","level":"三甲","score":2,"profiles":"-","address":"四川省眉山市东坡区苏祠路14号","lng":"103.834724","lat":"30.046175","dept_num":34,"doc_num":193},{"id":"2473","name":"眉山市人民医院","city":"眉山","province":"四川","area":"西南","level":"三级","score":1,"profiles":"-","address":"眉山市东坡镇文庙街1号","lng":"103.84441","lat":"30.044199","dept_num":27,"doc_num":69},{"id":"2475","name":"平昌县人民医院","city":"巴中","province":"四川","area":"西南","level":"二级","score":1,"profiles":"-","address":"四川省平昌县江口镇新平街145号","lng":"107.119774","lat":"31.565737","dept_num":14,"doc_num":79},{"id":"2476","name":"巴中市中医院","city":"巴中","province":"四川","area":"西南","level":"二甲","score":1,"profiles":"-","address":"四川巴中市江北郑家街2号","lng":"106.75748","lat":"31.86292","dept_num":14,"doc_num":40},{"id":"2479","name":"遂宁市中心医院","city":"遂宁","province":"四川","area":"西南","level":"三甲","score":2,"profiles":"-","address":"四川省遂宁市船山区德胜西路127号","lng":"105.58332","lat":"30.507683","dept_num":49,"doc_num":386},{"id":"2482","name":"广安市人民医院","city":"广安","province":"四川","area":"西南","level":"三甲","score":2,"profiles":"-","address":"广安市广安区滨河路四段1号","lng":"106.6398","lat":"30.456348","dept_num":25,"doc_num":116},{"id":"1421","name":"华西医院","city":"成都","province":"四川","area":"西南","level":"三甲","score":2,"profiles":"-","address":"四川省成都市武侯区国学巷37号(本部),成都市高新西区尚锦路253号(上锦院区)","lng":"104.06904","lat":"30.649263","dept_num":50,"doc_num":1230},{"id":"1459","name":"四川省人民医院","city":"成都","province":"四川","area":"西南","level":"三甲","score":2,"profiles":"-","address":"四川省成都市一环路西二段32号","lng":"104.04689","lat":"30.66986","dept_num":70,"doc_num":965},{"id":"1494","name":"成都中医药大学附属医院","city":"成都","province":"四川","area":"西南","level":"三甲","score":2,"profiles":"-","address":"四川省成都市金牛区十二桥路39号","lng":"104.04838","lat":"30.672136","dept_num":35,"doc_num":509},{"id":"1523","name":"成都军区总医院","city":"成都","province":"四川","area":"西南","level":"三甲","score":2,"profiles":"-","address":"成都市蓉都大道天回路270号","lng":"104.12222","lat":"30.75079","dept_num":38,"doc_num":439},{"id":"1549","name":"成都第三人民医院","city":"成都","province":"四川","area":"西南","level":"三甲","score":2,"profiles":"-","address":"成都市青龙街82号","lng":"104.069756","lat":"30.676064","dept_num":40,"doc_num":291},{"id":"1567","name":"成都市妇女儿童中心医院","city":"成都","province":"四川","area":"西南","level":"三甲","score":2,"profiles":"-","address":"成都市西三环外日月大道1617号","lng":"103.967094","lat":"30.684011","dept_num":37,"doc_num":290},{"id":"1606","name":"成都医学院附属医院","city":"成都","province":"四川","area":"西南","level":"三甲","score":2,"profiles":"-","address":"四川省成都市新都区宝光大道278号","lng":"104.16455","lat":"30.831232","dept_num":35,"doc_num":253},{"id":"1630","name":"成都416医院","city":"成都","province":"四川","area":"西南","level":"三级","score":1,"profiles":"-","address":"成都市二环路北四段4号","lng":"104.09932","lat":"30.695683","dept_num":38,"doc_num":249},{"id":"1647","name":"成都市第一人民医院","city":"成都","province":"四川","area":"西南","level":"三甲","score":2,"profiles":"-","address":"成都市高新南区繁雄大道万象北路18号","lng":"104.05748","lat":"30.603327","dept_num":35,"doc_num":239},{"id":"1664","name":"华西妇产儿童医院","city":"成都","province":"四川","area":"西南","level":"三甲","score":2,"profiles":"-","address":"成都市人民南路3段20号","lng":"104.07225","lat":"30.645245","dept_num":20,"doc_num":233},{"id":"1683","name":"华西口腔医院","city":"成都","province":"四川","area":"西南","level":"三甲","score":2,"profiles":"-","address":"四川省成都市人民南路三段14号","lng":"104.07248","lat":"30.649343","dept_num":13,"doc_num":220},{"id":"1712","name":"成都市第二人民医院","city":"成都","province":"四川","area":"西南","level":"三甲","score":2,"profiles":"-","address":"成都市庆云南街10号","lng":"104.09296","lat":"30.666277","dept_num":34,"doc_num":208},{"id":"1728","name":"四川省肿瘤医院","city":"成都","province":"四川","area":"西南","level":"三甲","score":2,"profiles":"-","address":"成都市人民南路四段55号","lng":"104.07727","lat":"30.61485","dept_num":28,"doc_num":198},{"id":"1755","name":"四川省康复医院","city":"成都","province":"四川","area":"西南","level":"三甲","score":1,"profiles":"-","address":"四川省成都市温江区永宁镇八一路81号（成都国际医学城内)","lng":"103.90541","lat":"30.729961","dept_num":23,"doc_num":194},{"id":"1786","name":"成都大学附属医院","city":"成都","province":"四川","area":"西南","level":"三甲","score":2,"profiles":"-","address":"四川省成都市二环路北二段82号","lng":"104.039856","lat":"30.640549","dept_num":37,"doc_num":159},{"id":"1805","name":"解放军452医院","city":"成都","province":"四川","area":"西南","level":"三甲","score":2,"profiles":"-","address":"成都市锦江区九眼桥顺江路317号","lng":"104.102","lat":"30.639362","dept_num":32,"doc_num":152},{"id":"1818","name":"彭州人民医院","city":"成都","province":"四川","area":"西南","level":"三级","score":1,"profiles":"-","address":"四川省彭州市金彭西路184号（老院区）;彭州市南部新城区（新院区）","lng":"103.94377","lat":"30.994713","dept_num":30,"doc_num":135},{"id":"1835","name":"四川省第四人民医院","city":"成都","province":"四川","area":"西南","level":"二甲","score":1,"profiles":"-","address":"成都市城守东大街57号","lng":"104.0826","lat":"30.659117","dept_num":29,"doc_num":119},{"id":"1858","name":"四川省骨科医院","city":"成都","province":"四川","area":"西南","level":"三甲","score":2,"profiles":"-","address":"四川省成都市武侯区一环路西一段132号","lng":"104.04723","lat":"30.657854","dept_num":10,"doc_num":114},{"id":"1886","name":"成都市第七人民医院","city":"成都","province":"四川","area":"西南","level":"三级","score":1,"profiles":"-","address":"成都市致民路十二中街1号","lng":"104.08642","lat":"30.647911","dept_num":30,"doc_num":110},{"id":"1898","name":"成都市第五人民医院","city":"成都","province":"四川","area":"西南","level":"三甲","score":2,"profiles":"-","address":"四川省成都市温江区麻市街33号","lng":"103.836205","lat":"30.702658","dept_num":28,"doc_num":108},{"id":"1914","name":"成都市中西医结合医院北区","city":"成都","province":"四川","area":"西南","level":"三甲","score":2,"profiles":"-","address":"成都市锦江区红星中路一段44号","lng":"104.12427","lat":"30.606302","dept_num":22,"doc_num":106},{"id":"1926","name":"成都363医院","city":"成都","province":"四川","area":"西南","level":"三级","score":1,"profiles":"-","address":"成都市倒桑树街108号(南河彩虹桥旁)","lng":"104.06146","lat":"30.654976","dept_num":28,"doc_num":106},{"id":"1932","name":"四川省第二中医医院","city":"成都","province":"四川","area":"西南","level":"三甲","score":2,"profiles":"-","address":"成都市四道街20号","lng":"104.06048","lat":"30.677788","dept_num":23,"doc_num":101},{"id":"1943","name":"四川省中西医结合医院","city":"成都","province":"四川","area":"西南","level":"三甲","score":2,"profiles":"-","address":"成都市人民南路四段51号","lng":"104.07406","lat":"30.619493","dept_num":26,"doc_num":100},{"id":"1954","name":"新津县人民医院","city":"成都","province":"四川","area":"西南","level":"二甲","score":1,"profiles":"-","address":"成都市新津县五津西路149号","lng":"103.81203","lat":"30.42187","dept_num":19,"doc_num":96},{"id":"1969","name":"四川省第五人民医院","city":"成都","province":"四川","area":"西南","level":"二甲","score":1,"profiles":"-","address":"成都市商业街66号","lng":"104.067924","lat":"30.679943","dept_num":21,"doc_num":89},{"id":"1976","name":"成都市第六人民医院","city":"成都","province":"四川","area":"西南","level":"三甲","score":2,"profiles":"-","address":"成都市建设南街16号","lng":"104.114204","lat":"30.6735","dept_num":29,"doc_num":84},{"id":"1981","name":"成都市第四人民医院","city":"成都","province":"四川","area":"西南","level":"三甲","score":2,"profiles":"-","address":"成都市营门口路互利西一巷8号(二环路营门口立交桥侧)","lng":"104.04553","lat":"30.697216","dept_num":11,"doc_num":79},{"id":"1994","name":"四川省妇幼保健院","city":"成都","province":"四川","area":"西南","level":"三甲","score":2,"profiles":"-","address":"成都市武侯区晋阳路沙堰村西二街290号","lng":"103.98435","lat":"30.582766","dept_num":16,"doc_num":78},{"id":"2002","name":"华西第四医院","city":"成都","province":"四川","area":"西南","level":"三甲","score":2,"profiles":"-","address":"成都市人民南路3段18号","lng":"104.07244","lat":"30.646236","dept_num":18,"doc_num":64},{"id":"2007","name":"成飞医院","city":"成都","province":"四川","area":"西南","level":"三级","score":1,"profiles":"-","address":"成都巿青羊区黄田坝经一路105号","lng":"103.9714","lat":"30.699383","dept_num":25,"doc_num":63},{"id":"2012","name":"成都武警医院","city":"成都","province":"四川","area":"西南","level":"二级","score":1,"profiles":"-","address":"成都市浆洗街5号","lng":"104.06244","lat":"30.64922","dept_num":16,"doc_num":52},{"id":"2017","name":"青羊区第九医院","city":"成都","province":"四川","area":"西南","level":"二级","score":0,"profiles":"-","address":"成都市苏坡桥西街100号","lng":"103.99038","lat":"30.673868","dept_num":11,"doc_num":52},{"id":"2022","name":"成都市第十人民医院","city":"成都","province":"四川","area":"西南","level":"三级","score":1,"profiles":"-","address":"静明路377号三环路航天立交内侧","lng":"104.14459","lat":"30.619987","dept_num":17,"doc_num":51},{"id":"2027","name":"成都骨科医院","city":"成都","province":"四川","area":"西南","level":"二甲","score":1,"profiles":"-","address":"成都市均隆街66-68号","lng":"104.09581","lat":"30.656416","dept_num":4,"doc_num":49},{"id":"2035","name":"成都肛肠专科医院","city":"成都","province":"四川","area":"西南","level":"三级","score":1,"profiles":"-","address":"成都市太升南路大墙东街152号","lng":"104.08136","lat":"30.668661","dept_num":6,"doc_num":49},{"id":"2049","name":"青羊区第六人民医院","city":"成都","province":"四川","area":"西南","level":"二甲","score":1,"profiles":"-","address":"成都市青羊区光华村街11号","lng":"104.02464","lat":"30.66866","dept_num":21,"doc_num":47},{"id":"2058","name":"成都儿童专科医院","city":"成都","province":"四川","area":"西南","level":"二甲","score":1,"profiles":"-","address":"成都市东城根上街39号","lng":"104.06688","lat":"30.665539","dept_num":9,"doc_num":44},{"id":"2059","name":"四川大学华西医院西藏成办分院","city":"成都","province":"四川","area":"西南","level":"三级","score":1,"profiles":"-","address":"成都市洗面桥横街20号","lng":"104.05827","lat":"30.648209","dept_num":20,"doc_num":43},{"id":"2064","name":"成都口腔医院","city":"成都","province":"四川","area":"西南","level":"二级","score":0,"profiles":"-","address":"成都市锦江区春熙路南段17号","lng":"104.08286","lat":"30.660519","dept_num":4,"doc_num":42},{"id":"2069","name":"四川省红十字肿瘤医院","city":"成都","province":"四川","area":"西南","level":"二甲","score":1,"profiles":"-","address":"四川省成都市燃灯寺路9号","lng":"104.041664","lat":"30.650503","dept_num":17,"doc_num":42},{"id":"2075","name":"成都第一骨科医院","city":"成都","province":"四川","area":"西南","level":"二甲","score":1,"profiles":"-","address":"成都市羊市街西延线东门街54号","lng":"104.065575","lat":"30.673624","dept_num":7,"doc_num":37},{"id":"2079","name":"成华区妇幼保健院","city":"成都","province":"四川","area":"西南","level":"一甲","score":1,"profiles":"-","address":"四川省成都市成华大道新鸿路6号","lng":"104.10321","lat":"30.66774","dept_num":4,"doc_num":34},{"id":"2083","name":"金牛区人民医院","city":"成都","province":"四川","area":"西南","level":"二级","score":1,"profiles":"-","address":"成都市金牛区茶店子健康巷3号","lng":"104.03519","lat":"30.701534","dept_num":12,"doc_num":33},{"id":"2088","name":"青羊区第五人民医院","city":"成都","province":"四川","area":"西南","level":"二级","score":0,"profiles":"-","address":"成都市锦里西路84号","lng":"104.053055","lat":"30.661829","dept_num":7,"doc_num":24},{"id":"2091","name":"成都市肺结核医院","city":"成都","province":"四川","area":"西南","level":"二级","score":1,"profiles":"-","address":"成都市鼓楼北二街60号","lng":"104.081215","lat":"30.67278","dept_num":1,"doc_num":24}],"legendList":["三甲","二级","三级","一甲","二甲"]}